City_ID,City,Lat,Lng,Max Temp,Humidity,Cloudiness,Wind Speed,Country,Date
0,bethel,41.3712,-73.414,56.55,65,100,3.44,US,1731377142
1,ta`u,-14.2336,-169.5144,81.3,72,39,11.36,AS,1731377144
2,bubaque,11.2833,-15.8333,83.88,66,69,7.83,GW,1731377145
3,hasaki,35.7333,140.8333,66.78,57,100,1.68,JP,1731377146
4,thunder bay,48.4001,-89.3168,28.38,80,0,5.75,CA,1731376796
5,hermanus,-34.4187,19.2345,57.79,80,22,4.74,ZA,1731377149
6,waitangi,-43.9535,-176.5597,56.82,69,46,4.0,NZ,1731377150
7,port-vila,-17.7338,168.3219,85.6,58,75,11.5,VU,1731377151
8,kapa'a,22.0752,-159.319,79.12,88,100,14.97,US,1731377152
9,uturoa,-16.7333,-151.4333,79.11,81,83,19.66,PF,1731377153
10,whitby,54.4877,-0.615,49.37,86,99,1.99,GB,1731376907
11,port augusta,-32.5,137.7667,79.52,47,0,3.76,AU,1731377156
12,baracoa,20.3467,-74.4958,80.1,91,93,8.57,CU,1731377157
13,sola,-13.8833,167.55,80.73,72,94,16.51,VU,1731377158
14,blackmans bay,-43.0167,147.3167,72.52,52,0,3.0,AU,1731377159
15,west bay,19.3667,-81.4167,82.47,78,20,3.44,KY,1731377161
16,vadso,70.0744,29.7487,33.96,93,75,10.36,NO,1731377162
17,yellowknife,62.456,-114.3525,18.41,94,100,15.01,CA,1731377127
18,ribeira grande,38.5167,-28.7,69.78,94,100,18.01,PT,1731377164
19,eregli,37.5133,34.0467,44.24,77,13,2.26,TR,1731377165
20,port-aux-francais,-49.35,70.2167,40.98,96,100,18.54,TF,1731377167
21,buckhannon,38.994,-80.232,55.94,69,75,9.22,US,1731377168
22,ugoofaaru,5.6667,73.0,82.53,68,100,4.43,MV,1731377169
23,hamilton,39.1834,-84.5333,56.86,72,75,6.91,US,1731376972
24,addiet canna,11.2667,37.4833,56.59,79,9,4.7,ET,1731377171
25,sinop,41.7711,34.8709,44.1,91,22,1.54,TR,1731377173
26,tura,25.5198,90.2201,71.31,78,1,1.74,IN,1731377174
27,ushuaia,-54.8,-68.3,46.06,81,40,5.75,AR,1731377152
28,chamical,-30.36,-66.314,67.17,48,0,3.27,AR,1731377176
29,armacao de buzios,-22.7469,-41.8817,71.04,83,0,17.45,BR,1731377157
30,bredasdorp,-34.5322,20.0403,56.32,91,36,3.58,ZA,1731377179
31,sitka,57.0531,-135.33,42.69,75,40,4.61,US,1731377180
32,petropavlovsk-kamchatsky,53.0452,158.6483,36.19,44,75,13.42,RU,1731377181
33,levuka,50.1834,-105.4011,42.51,58,99,19.24,CA,1731377183
34,puerto natales,-51.7236,-72.4875,43.9,87,56,11.41,CL,1731376908
35,bengkulu,-3.8004,102.2655,81.52,74,100,1.74,ID,1731377185
36,pacific grove,36.6177,-121.9166,53.65,94,40,3.44,US,1731377186
37,katsuura,35.1333,140.3,68.22,66,85,3.0,JP,1731377188
38,flying fish cove,-10.4217,105.6791,80.28,89,100,12.66,CX,1731377189
39,grytviken,-54.2811,-36.5092,31.66,88,95,12.15,GS,1731377037
40,taroa,8.7058,171.2275,83.01,73,100,7.49,MH,1731377193
41,myanaung,18.2833,95.3167,76.84,84,37,9.73,MM,1731377194
42,jambi city,-1.6,103.6167,81.64,86,100,3.22,ID,1731377195
43,invercargill,-46.4,168.35,60.03,65,92,14.0,NZ,1731377196
44,salinas,36.6777,-121.6555,54.07,95,40,3.44,US,1731377198
45,lazaro cardenas,17.9583,-102.2,79.86,82,29,3.89,MX,1731377199
46,punta arenas,-53.15,-70.9167,48.31,81,75,11.5,CL,1731377200
47,timmins,48.4669,-81.3331,30.02,93,100,16.11,CA,1731377102
48,al bawiti,28.3492,28.8659,57.83,72,49,5.37,EG,1731377202
49,palikir - national government center,6.9248,158.1611,88.65,70,75,11.5,FM,1731377204
50,sheregesh,52.9209,87.9869,16.12,93,100,7.87,RU,1731377205
51,acapulco de juarez,16.8634,-99.8901,84.02,79,20,4.61,MX,1731377113
52,serhiyivka,46.0272,30.3768,47.43,74,100,12.3,UA,1731377207
53,usogorsk,63.4106,48.6872,33.13,98,100,10.89,RU,1731377208
54,albany,42.6001,-73.9662,56.44,62,100,1.99,US,1731377210
55,lihue,21.9789,-159.3672,78.39,86,100,14.97,US,1731377211
56,qaqortoq,60.7167,-46.0333,28.04,79,12,31.54,GL,1731377212
57,mount pearl,47.5166,-52.7813,44.15,91,100,17.27,CA,1731377213
58,iqaluit,63.7506,-68.5145,6.53,85,20,5.75,CA,1731377098
59,talnakh,69.4865,88.3972,-18.58,91,51,1.95,RU,1731377217
60,altinopolis,-21.0256,-47.3739,70.97,64,87,2.28,BR,1731377218
61,corralejo,28.7424,-13.8684,69.51,80,1,14.79,ES,1731377219
62,ilulissat,69.2167,-51.1,24.82,80,100,12.48,GL,1731377221
63,shingu,33.7333,135.9833,70.21,65,46,2.71,JP,1731377222
64,adamstown,-25.066,-130.1015,71.37,64,100,2.84,PN,1731377223
65,ternate,0.8,127.4,84.13,69,59,2.46,ID,1731376947
66,carnarvon,-24.8667,113.6333,76.64,48,93,20.24,AU,1731377225
67,west island,-12.1568,96.8225,78.58,83,52,19.6,CC,1731377227
68,maun,-19.9833,23.4167,69.4,78,100,4.59,BW,1731377228
69,saipan,15.1355,145.701,84.9,84,75,17.27,MP,1731377229
70,salacgriva,57.7536,24.3581,43.56,87,100,9.95,LV,1731377230
71,vallenar,-28.5708,-70.7581,71.15,41,0,2.04,CL,1731377231
72,weno,7.4515,151.8468,78.46,84,100,7.92,FM,1731377232
73,vicente guerrero,19.1194,-98.1708,62.46,48,100,2.75,MX,1731377234
74,nar'yan-mar,67.6713,53.087,14.81,98,89,5.97,RU,1731377235
75,masumbwe,-3.6333,32.1833,65.07,87,99,2.04,TZ,1731377236
76,sorong,-0.8833,131.25,81.14,77,100,3.44,ID,1731377116
77,port elizabeth,-33.918,25.5701,63.32,98,0,10.36,ZA,1731376995
78,kingston,17.997,-76.7936,81.55,83,20,5.75,JM,1731377240
79,college,64.8569,-147.8028,-0.54,79,75,0.0,US,1731377242
80,hawaiian paradise park,19.5933,-154.9731,75.87,92,75,6.91,US,1731377243
81,arraial do cabo,-22.9661,-42.0278,72.21,83,0,21.92,BR,1731377245
82,stanley,54.868,-1.6985,40.28,94,38,2.3,GB,1731377054
83,edinburgh of the seven seas,-37.0676,-12.3116,55.47,78,100,14.65,SH,1731377247
84,petersaurach,49.3,10.75,41.11,93,100,5.75,DE,1731377248
85,port saint john's,-31.6229,29.5448,63.57,89,100,2.86,ZA,1731377250
86,papatowai,-46.5619,169.4708,59.97,48,69,10.92,NZ,1731377251
87,qarah bagh,34.9402,61.7759,48.6,42,0,4.29,AF,1731377252
88,alofi,-19.0595,-169.9187,71.49,94,100,11.5,NU,1731377253
89,ancud,-41.8697,-73.8203,50.49,88,100,9.86,CL,1731377254
90,kolonia,50.9333,6.95,48.94,93,75,3.44,DE,1731377206
91,hammerfest,70.6634,23.6821,41.45,93,100,6.91,NO,1731377257
92,utrik,11.2278,169.8474,83.37,77,29,16.44,MH,1731377258
93,san mateo del mar,16.2,-95.0,80.87,78,12,28.1,MX,1731377259
94,chonchi,-42.6128,-73.8092,51.12,96,99,3.74,CL,1731377261
95,namibe,-15.1961,12.1522,70.74,72,10,5.84,AO,1731377262
96,quellon,-43.1167,-73.6167,48.7,93,100,7.43,CL,1731377090
97,franca,-20.5386,-47.4008,71.49,62,71,0.87,BR,1731377264
98,bir el ater,34.7449,8.0602,54.59,71,84,11.25,DZ,1731377265
99,olonkinbyen,70.9221,-8.7187,33.24,98,100,25.12,SJ,1731377267
100,isafjordur,66.0755,-23.124,47.7,89,100,22.84,IS,1731377268
101,madinat ash shamal,26.1293,51.2009,78.78,70,0,6.22,QA,1731377269
102,cetinje,42.3906,18.9142,39.15,69,0,8.37,ME,1731377270
103,bagerhat,22.6554,89.7972,74.12,68,93,5.41,BD,1731377271
104,nova sintra,14.8667,-24.7167,80.73,68,57,16.89,CV,1731377273
105,khandyga,62.6667,135.6,-3.35,94,92,1.86,RU,1731377274
106,mount isa,-20.7333,139.5,99.7,18,86,0.47,AU,1731377275
107,tolanaro,-25.0319,46.9987,73.81,80,97,2.48,MG,1731377276
108,beyneu,45.3167,55.2,40.98,62,100,6.89,KZ,1731377277
109,fort mcmurray,56.7268,-111.381,32.18,81,100,6.06,CA,1731377279
110,broken hill,-31.95,141.4333,82.89,33,27,16.44,AU,1731377280
111,jamestown,42.097,-79.2353,46.02,80,100,14.97,US,1731377264
112,al qubbah,32.7616,22.2424,58.8,63,3,10.65,LY,1731377282
113,belyy yar,53.6039,91.3903,33.69,55,0,13.42,RU,1731377284
114,smiths station,32.5401,-85.0985,67.41,88,0,0.0,US,1731377285
115,yeraliyev,43.2,51.65,43.72,81,100,10.49,KZ,1731377286
116,belmonte,-15.8631,-38.8828,72.18,93,35,4.47,BR,1731377287
117,bununu,9.8681,9.6628,68.4,40,26,3.29,NG,1731377288
118,ebstorf,53.0279,10.4184,42.82,96,75,9.22,DE,1731377097
119,tsiombe,-25.3,45.4833,70.43,95,96,0.78,MG,1731377291
120,margaret river,-33.95,115.0667,62.26,68,92,10.0,AU,1731377292
121,wailua homesteads,22.0669,-159.378,77.79,88,100,14.97,US,1731377293
122,dunda,-8.1167,34.25,67.01,70,0,1.97,TZ,1731377294
123,barcelos,41.5388,-8.6151,54.41,80,49,5.41,PT,1731377296
124,la palma,33.8464,-118.0467,62.83,79,40,6.91,US,1731377297
125,conceicao da barra,-18.5933,-39.7322,70.84,84,0,1.19,BR,1731377299
126,tazovsky,67.4667,78.7,-11.74,96,85,12.08,RU,1731377301
127,margate,51.3813,1.3862,50.7,82,100,3.0,GB,1731377089
128,thompson,55.7435,-97.8558,25.11,76,100,8.19,CA,1731377303
129,sisimiut,66.9395,-53.6735,27.23,73,100,13.71,GL,1731377304
130,longyearbyen,78.2186,15.6401,35.44,93,75,3.44,SJ,1731377305
131,minas de marcona,-15.2119,-75.1103,57.7,81,16,9.04,PE,1731377306
132,puerto ayora,-0.7393,-90.3518,71.55,87,30,5.01,EC,1731377308
133,novodvinsk,64.4165,40.8122,31.75,89,100,7.63,RU,1731377309
134,lebu,-37.6167,-73.65,52.65,75,87,16.44,CL,1731377069
135,fort bragg,35.139,-79.006,63.95,94,0,3.44,US,1731377303
136,enewetak,11.3474,162.3373,83.55,78,1,14.14,MH,1731377315
137,changling,44.2653,124.0005,40.44,34,0,6.82,CN,1731377316
138,port alfred,-33.5906,26.891,63.18,95,2,3.0,ZA,1731377027
139,westport,41.1415,-73.3579,58.91,64,40,8.05,US,1731377181
140,kingscliff,-28.2667,153.5667,79.95,82,95,5.75,AU,1731377320
141,cabedelo,-6.9811,-34.8339,77.67,74,87,11.34,BR,1731377321
142,munduk,-8.2687,115.0795,76.08,78,67,1.88,ID,1731377322
143,badger,64.8,-147.5333,3.81,82,0,0.0,US,1731377324
144,san patricio,28.017,-97.5169,75.15,69,52,9.08,US,1731377325
145,yeghegnadzor,39.7639,45.3324,41.54,76,58,1.34,AM,1731377326
146,hotan,37.0997,79.9269,46.24,53,38,6.6,CN,1731377327
147,toliara,-23.35,43.6667,72.73,84,70,8.59,MG,1731377328
148,kibakwe,-6.7167,36.3667,63.68,88,0,3.65,TZ,1731377330
149,kattivakkam,13.2167,80.3167,78.89,99,100,11.72,IN,1731377331
150,vicuna,-30.0319,-70.7081,74.32,34,0,1.79,CL,1731377061
151,kosh-agach,50.0,88.6667,21.74,71,97,10.11,RU,1731377333
152,businga,3.3333,20.8833,70.14,98,26,1.86,CD,1731377334
153,xilin hot,43.9667,116.0333,38.32,48,0,7.81,CN,1731377336
154,st. john's,47.5649,-52.7093,44.98,91,100,17.27,CA,1731377337
155,coronel dorrego,-38.7187,-61.2873,48.47,86,99,5.95,AR,1731377339
156,mazowe,-17.504,30.9739,70.57,66,82,4.72,ZW,1731377340
157,vila franca do campo,37.7167,-25.4333,68.41,99,52,15.57,PT,1731377342
158,sinabang,2.4803,96.3801,79.02,86,100,5.44,ID,1731377343
159,udachny,66.4167,112.4,-9.54,100,100,3.62,RU,1731377344
160,queenstown,-31.8976,26.8753,52.9,87,92,3.42,ZA,1731377345
161,dunedin,-45.8742,170.5036,54.7,64,3,10.87,NZ,1731377231
162,kitimat,54.0524,-128.6534,39.9,29,100,1.54,CA,1731377348
163,ust-nera,64.5667,143.2,-16.96,98,82,2.35,RU,1731377349
164,georgetown,5.4112,100.3354,85.95,77,20,5.99,MY,1731377350
165,wigton,54.8248,-3.1611,38.84,90,91,3.36,GB,1731377351
166,klyuchi,52.2667,79.1667,18.14,80,100,14.81,RU,1731377353
167,bikin,46.8161,134.26,31.48,81,100,11.12,RU,1731377354
168,puerto santa,-8.9906,-78.6456,64.13,87,100,9.53,PE,1731377355
169,la asuncion,11.0333,-63.8628,79.86,84,58,8.21,VE,1731377356
170,buwenge,0.6422,33.1744,64.72,94,100,1.48,UG,1731377166
171,codrington,-38.2667,141.9667,76.3,40,78,5.68,AU,1731377358
172,yanchep,-31.55,115.6833,67.87,58,36,9.93,AU,1731377360
173,jabal os saraj,35.1183,69.2378,42.21,19,32,1.16,AF,1731377361
174,puerto deseado,-47.7503,-65.8938,58.05,41,100,24.38,AR,1731377362
175,yelizovo,53.1873,158.3805,37.54,44,75,13.42,RU,1731377363
176,tefe,-3.3542,-64.7114,77.99,79,100,2.15,BR,1731377156
177,poli,-3.3333,36.8,59.59,91,24,1.16,TZ,1731377366
178,ves'yegonsk,58.664,37.2604,29.53,82,100,5.1,RU,1731377367
179,atafu village,-8.5421,-172.5159,83.93,71,4,12.64,TK,1731377368
180,tocopilla,-22.092,-70.1979,66.43,72,1,4.14,CL,1731377232
181,antsiranana,-12.2787,49.2917,76.86,79,6,12.64,MG,1731377370
182,puerto san jose,13.9256,-90.8244,80.1,79,100,1.36,GT,1731377372
183,cidreira,-30.1811,-50.2056,64.92,88,100,6.67,BR,1731377373
184,vorgashor,67.5833,63.95,-1.35,97,72,9.01,RU,1731377374
185,alotau,-10.3069,150.4462,85.98,68,99,5.64,PG,1731377375
186,juan griego,11.0817,-63.9655,79.52,86,55,6.15,VE,1731377376
187,tromso,69.6496,18.957,39.22,93,100,12.66,NO,1731377378
188,tucuma,-0.1833,-50.05,80.69,77,100,9.1,BR,1731377379
189,aasiaat,68.7098,-52.8699,27.93,78,100,19.55,GL,1731377380
190,fayzabad,37.1166,70.58,46.26,44,100,6.82,AF,1731377381
191,wewak,-3.5534,143.6268,79.2,85,99,4.34,PG,1731377382
192,gadzhiyevo,69.2551,33.3362,36.37,88,100,16.24,RU,1731377385
193,iskateley,67.6803,53.1512,14.68,98,91,5.79,RU,1731377386
194,thinadhoo,0.5333,72.9333,83.21,74,95,15.86,MV,1731377387
195,tabou,4.423,-7.3528,78.53,84,7,6.67,CI,1731377389
196,toyoshina,36.2999,137.9011,67.08,52,2,0.2,JP,1731377390
197,imbituba,-28.24,-48.6703,68.0,86,38,14.36,BR,1731377391
198,port mathurin,-19.6833,63.4167,75.81,80,74,20.31,MU,1731377392
199,necochea,-38.5473,-58.7368,48.96,81,1,5.32,AR,1731377314
200,ha'il,27.5219,41.6907,60.82,82,0,2.3,SA,1731377395
201,santa cruz cabralia,-16.2781,-39.0247,73.63,94,0,4.61,BR,1731377396
202,naze,28.3667,129.4833,74.44,76,95,10.47,JP,1731377397
203,vilyuchinsk,52.9306,158.4028,37.67,74,17,33.13,RU,1731377398
204,ubinskoye,55.3068,79.6802,9.91,91,100,14.92,RU,1731377399
205,tuyen quang,21.8233,105.2181,80.01,56,37,1.01,VN,1731377401
206,yuli,9.6989,10.2744,72.77,38,48,5.61,NG,1731377402
207,luebo,-5.35,21.4167,68.45,96,41,1.19,CD,1731377403
208,nagqu,31.5,92.0,28.18,35,99,3.0,CN,1731377404
209,bahia de caraquez,-0.6,-80.4167,72.19,78,31,10.18,EC,1731377405
210,kindu,-2.95,25.95,69.31,99,100,1.21,CD,1731377407
211,altai,46.3722,96.2583,24.49,63,51,22.77,MN,1731377408
212,kuanda,56.3161,116.0806,6.26,84,72,1.45,RU,1731377409
213,kerikeri,-35.2268,173.9474,66.87,59,15,9.57,NZ,1731377410
214,bilibino,68.0546,166.4372,-9.49,96,85,4.03,RU,1731377411
215,san luis de la loma,17.2706,-100.8939,79.74,86,76,3.91,MX,1731377413
216,kone,-21.0595,164.8658,90.72,36,12,4.09,NC,1731377414
217,heze,35.2431,115.4411,65.44,60,2,5.06,CN,1731377415
218,sydney,-33.8679,151.2073,75.88,79,100,3.0,AU,1731377416
219,phon charoen,18.0333,103.1667,82.78,66,100,3.31,TH,1731377417
220,lhokseumawe,5.1801,97.1507,77.56,89,100,9.69,ID,1731377420
221,san juan,-31.5375,-68.5364,69.76,24,0,8.52,AR,1731377421
222,porto novo,6.4965,2.6036,77.23,88,61,1.03,BJ,1731377422
223,palembang,-2.9167,104.7458,80.69,94,40,2.3,ID,1731377165
224,alaghsas,17.0187,8.0168,68.18,25,0,11.34,NE,1731377425
225,khuzdar,27.7384,66.6434,54.28,35,3,4.76,PK,1731377426
226,hithadhoo,-0.6,73.0833,83.32,73,95,15.32,MV,1731377427
227,domna,51.8971,113.1573,3.36,85,75,0.0,RU,1731377429
228,ji'an,27.1172,114.9793,70.7,65,0,5.86,CN,1731377430
229,cabo san lucas,22.8909,-109.9124,77.31,60,20,4.61,MX,1731377430
230,balsas,-7.5325,-46.0356,72.81,93,100,2.51,BR,1731377433
231,nochistlan de mejia,21.3667,-102.85,67.05,31,2,5.97,MX,1731377435
232,fale old settlement,-9.3852,-171.2468,83.95,67,4,12.21,TK,1731377436
233,anta,25.15,76.3,71.29,44,0,3.06,IN,1731377437
234,walvis bay,-22.9575,14.5053,55.99,92,0,7.27,NA,1731377438
235,whitehorse,60.7161,-135.0538,27.37,93,100,2.3,CA,1731377376
236,karratha,-20.7377,116.8463,95.52,23,36,10.45,AU,1731377441
237,tandag,9.0783,126.1986,86.22,64,74,5.41,PH,1731377156
238,okondja,-0.6549,13.6753,70.56,98,15,1.03,GA,1731377443
239,nago,26.5881,127.9761,78.66,80,100,11.14,JP,1731377444
240,sao joao da barra,-21.6403,-41.0511,73.85,84,0,15.19,BR,1731377446
241,choma,-16.8065,26.9531,65.68,83,100,0.63,ZM,1731377447
242,happy valley-goose bay,53.3168,-60.3315,30.02,92,100,2.44,CA,1731377448
243,kilindoni,-7.9139,39.6668,79.97,83,41,8.01,TZ,1731377449
244,prince albert,53.2001,-105.7677,36.03,68,98,14.56,CA,1731377450
245,mil'kovo,55.6078,37.7956,34.34,58,65,4.79,RU,1731377452
246,qarqaraly,49.4058,75.4742,0.97,99,100,4.97,KZ,1731377453
247,graaff-reinet,-32.2522,24.5308,51.93,91,20,2.28,ZA,1731377454
248,pisco,-13.7,-76.2167,64.45,82,0,12.66,PE,1731377455
249,swan hill,-35.3378,143.5544,83.73,28,91,1.77,AU,1731377457
250,aripuana,-9.1667,-60.6333,74.05,90,56,2.35,BR,1731377458
251,ascencion de guarayos,-15.8963,-63.1881,74.68,91,29,3.4,BO,1731377459
252,tual,-5.6667,132.75,82.76,73,92,10.2,ID,1731377460
253,tiksi,71.6872,128.8694,-0.02,94,100,2.51,RU,1731377461
254,naifaru,5.4444,73.3657,82.44,68,98,5.82,MV,1731377463
255,preobrazheniye,42.9019,133.9064,50.58,47,0,14.54,RU,1731377464
256,as sulayyil,20.4607,45.5779,66.92,37,79,4.97,SA,1731377465
257,kralendijk,12.15,-68.2667,82.38,83,100,4.61,BQ,1731377466
258,borgarnes,64.5383,-21.9206,51.94,93,100,19.73,IS,1731377467
259,shepherdsville,37.9884,-85.7158,54.82,86,0,4.63,US,1731377469
260,hat yai,7.0084,100.4767,78.98,94,75,4.61,TH,1731377470
261,kalmunai,7.4167,81.8167,80.42,80,17,5.28,LK,1731377354
262,monte cristo,-31.3431,-63.9444,59.76,33,0,3.65,AR,1731377472
263,rio grande,-32.035,-52.0986,61.05,91,96,15.41,BR,1731377473
264,bandarbeyla,9.4942,50.8122,77.92,84,73,14.32,SO,1731377474
265,buka,40.8108,69.1986,45.68,68,100,3.15,UZ,1731377476
266,nantucket,41.2835,-70.0995,57.31,94,20,10.36,US,1731377477
267,arawa,-6.2132,155.5367,86.79,69,20,3.94,PG,1731377478
268,argo,37.6333,22.7333,56.03,74,100,1.72,GR,1731377428
269,rongelap,11.1635,166.8941,83.17,78,28,14.85,MH,1731377481
270,daru,-9.0763,143.2092,83.88,76,100,11.74,PG,1731377413
271,talakan,50.3167,130.3667,23.41,57,11,9.91,RU,1731377483
272,shitanjing,39.2342,106.3439,43.65,45,98,8.34,CN,1731377484
273,veraval,20.9,70.3667,77.99,45,1,8.57,IN,1731377486
274,afaahiti,-17.75,-149.2833,74.37,81,98,17.81,PF,1731377487
275,hamamatsu,34.7,137.7333,70.95,63,38,2.8,JP,1731377354
276,boquira,-12.8231,-42.7306,70.32,93,90,3.71,BR,1731377489
277,newman,37.3138,-121.0208,51.04,87,4,3.0,US,1731377360
278,nemuro,43.3236,145.575,47.7,72,100,14.23,JP,1731377491
279,el charco,2.4769,-78.1105,74.21,83,100,2.57,CO,1731377493
280,laguna,38.421,-121.4238,53.96,85,20,5.75,US,1731377494
281,lafia,8.4833,8.5167,74.25,41,77,2.44,NG,1731377495
282,taunggyi,20.7833,97.0333,67.68,86,43,1.03,MM,1731377309
283,raduzhny,62.0961,77.475,0.79,93,100,13.22,RU,1731377497
284,howard springs,-12.497,131.047,93.97,63,15,6.26,AU,1731377499
285,novohrad-volynskyi,50.5941,27.6165,30.87,94,92,5.91,UA,1731377500
286,anadyr,64.75,177.4833,7.3,84,40,8.95,RU,1731377501
287,ishinomaki,38.4167,141.3,55.6,65,100,5.93,JP,1731377502
288,luwingu,-10.2621,29.9271,61.79,91,100,1.59,ZM,1731377503
289,srebrenik,44.7078,18.4881,33.98,95,100,1.14,BA,1731377506
290,howrah,22.5892,88.3103,75.2,78,40,5.75,IN,1731377507
291,nguigmi,14.2495,13.1092,73.4,27,4,11.9,NE,1731377508
292,east london,-33.0153,27.9116,63.19,83,43,11.3,ZA,1731377509
293,san antonio de pale,-1.4014,5.6325,78.44,84,45,10.36,GQ,1731377511
294,laurel,39.0993,-76.8483,64.04,58,20,9.22,US,1731377307
295,plouzane,48.3833,-4.6167,46.45,100,0,5.75,FR,1731377513
296,abra pampa,-22.7205,-65.697,52.7,70,100,9.69,AR,1731377514
297,luganville,-15.5333,167.1667,80.74,75,96,10.22,VU,1731377518
298,gaiman,-43.2897,-65.4929,61.0,31,99,22.84,AR,1731377519
299,charleston,32.7766,-79.9309,70.02,93,0,5.75,US,1731377494
300,bam,29.106,58.357,61.32,38,0,1.14,IR,1731377522
301,cuenca,-2.8833,-78.9833,52.45,87,28,3.67,EC,1731377356
302,pangody,65.85,74.4859,-4.74,100,100,8.46,RU,1731377524
303,wuhu,31.3366,118.3755,66.78,58,0,10.42,CN,1731377526
304,mugia,43.1041,-9.2179,57.9,80,11,21.77,ES,1731377527
305,fada,7.25,4.0667,72.19,98,46,1.48,NG,1731377528
306,bure,10.7,37.0667,58.35,80,91,2.48,ET,1731377529
307,ormara,25.2088,64.6357,79.86,38,0,8.34,PK,1731377530
308,smara,26.7384,-11.6719,63.03,87,0,5.64,EH,1731377532
309,puerto leguizamo,-0.1934,-74.7819,78.62,75,100,2.62,CO,1731377533
310,prachuap khiri khan,12.2167,99.75,81.5,70,75,4.29,TH,1731377387
311,guarapari,-20.6667,-40.4975,70.14,87,0,9.57,BR,1731377535
312,iron river,46.0927,-88.6423,33.55,73,100,8.43,US,1731377536
313,balkanabat,39.5108,54.3671,51.98,78,100,0.72,TM,1731377538
314,puerto aysen,-45.4,-72.7,45.63,100,100,5.28,CL,1731377539
315,avarua,-21.2078,-159.775,75.25,60,20,16.11,CK,1731377540
316,kalamata,37.0389,22.1142,58.1,80,75,10.36,GR,1731377541
317,aljezur,37.3191,-8.8033,60.31,67,0,6.85,PT,1731377542
318,saldanha,-33.0117,17.9442,59.95,91,53,14.36,ZA,1731377544
319,borovichi,58.3878,33.9155,30.76,91,100,4.61,RU,1731377398
320,kimbe,-5.5502,150.1429,88.45,62,49,6.6,PG,1731377546
321,kiruna,67.8557,20.2251,18.52,93,100,8.05,SE,1731377547
322,baharly,38.4362,57.4316,52.74,80,100,3.33,TM,1731377548
323,siquirres,10.0975,-83.5066,73.69,97,100,2.42,CR,1731377433
324,charters towers,-20.1,146.2667,95.32,23,7,12.28,AU,1731377387
325,tumut,-35.3,148.2167,83.62,25,100,7.43,AU,1731377552
326,biankouma,7.7391,-7.6138,69.93,77,13,0.49,CI,1731377553
327,savanna-la-mar,18.219,-78.1332,79.93,93,84,3.29,JM,1731377554
328,eastham,41.8301,-69.9739,58.1,88,100,3.44,US,1731377556
329,saint-pierre,-21.3393,55.4781,73.08,73,0,3.44,RE,1731377557
330,kodiak,57.79,-152.4072,33.31,69,0,6.91,US,1731377288
331,raja,8.4596,25.678,73.24,40,29,3.24,SS,1731377559
332,east ballina,-28.8667,153.5833,71.51,91,100,7.23,AU,1731377561
333,abasolo,20.45,-101.5167,66.34,29,51,4.83,MX,1731377563
334,kavaratti,10.5669,72.642,84.07,67,87,9.08,IN,1731377564
335,kununurra,-15.7667,128.7333,100.72,32,87,6.64,AU,1731377567
336,banda aceh,5.5577,95.3222,80.49,72,100,3.78,ID,1731377568
337,baki,-7.6128,110.7839,83.08,71,99,2.98,ID,1731377569
338,farkhar,36.5729,69.8578,46.33,28,100,4.63,AF,1731377570
339,moranbah,-22.0016,148.0466,91.31,32,90,3.29,AU,1731377572
340,blairgowrie,56.5916,-3.3405,40.8,89,64,3.22,GB,1731377573
341,chibougamau,49.9168,-74.3659,28.15,94,100,16.78,CA,1731377574
342,nyurba,63.2842,118.3319,5.59,92,97,3.18,RU,1731377575
343,general villegas,-35.0328,-63.0125,52.32,32,26,0.96,AR,1731377577
344,constantia,44.1833,28.65,39.88,83,100,15.26,RO,1731377578
345,vanimo,-2.6741,141.3028,85.53,71,83,5.5,PG,1731377581
346,nema,57.5067,50.5011,28.11,88,100,9.98,RU,1731377583
347,boumagueur,35.5052,5.5525,54.79,77,16,8.25,DZ,1731377584
348,tarko-sale,64.9225,77.785,-5.26,94,100,16.33,RU,1731377585
349,neftegorsk,52.802,51.166,22.19,96,32,2.75,RU,1731377586
350,livingstone,-17.8419,25.8543,68.76,84,99,2.46,ZM,1731377587
351,kupang,-10.1667,123.5833,90.18,62,20,5.75,ID,1731377589
352,kapuskasing,49.4169,-82.4331,26.69,93,100,11.5,CA,1731377591
353,mazamari,-11.3258,-74.5308,74.37,90,90,2.08,PE,1731377592
354,selfoss,63.9331,-20.9971,51.04,97,100,23.67,IS,1731377593
355,velikiye luki,56.34,30.5452,34.0,91,100,4.99,RU,1731377595
356,myeik,12.4333,98.6,81.66,71,74,3.98,MM,1731377596
357,xuanzhou,30.9525,118.7553,66.56,63,0,10.0,CN,1731377509
358,nizhnyaya poyma,56.1622,97.1933,26.91,94,100,2.28,RU,1731377598
359,nyala,12.05,24.8833,72.9,24,1,15.61,SD,1731377599
360,castillos,-34.1667,-53.8333,53.53,69,39,10.74,UY,1731377601
361,gerash,27.6652,54.1371,64.04,64,1,2.71,IR,1731377602
362,greymouth,-42.4667,171.2,58.6,53,0,8.03,NZ,1731377603
363,callao,-12.0667,-77.15,67.71,82,20,12.66,PE,1731377604
364,poronaysk,49.2167,143.1167,33.22,63,100,3.33,RU,1731377605
365,noumea,-22.2763,166.4572,90.03,97,17,17.22,NC,1731377607
366,old town,50.087,14.4202,34.97,96,100,4.61,CZ,1731377608
367,zhongshu,24.5167,103.7667,60.98,91,78,5.5,CN,1731377609
368,quang ngai,15.1167,108.8,77.88,90,100,8.34,VN,1731377610
369,erenhot,43.6475,111.9767,38.79,57,0,9.69,CN,1731377611
370,luderitz,-26.6481,15.1594,59.5,76,40,12.91,NA,1731377613
371,panama city beach,30.1766,-85.8055,73.99,98,100,1.99,US,1731377614
372,natal,-5.795,-35.2094,74.05,88,20,3.44,BR,1731377551
373,puerto ayacucho,5.6639,-67.6236,79.07,85,50,4.29,VE,1731377580
374,blenheim,-41.516,173.9528,64.53,59,9,5.99,NZ,1731377617
375,holdrege,40.4403,-99.3698,40.91,87,0,9.22,US,1731377619
376,vila velha,-20.3297,-40.2925,69.75,94,0,3.44,BR,1731377620
377,butembo,0.15,29.2833,57.09,96,99,2.15,CD,1731377621
378,lompoc,34.6391,-120.4579,57.69,83,75,18.41,US,1731377622
379,ocean shores,46.9737,-124.1563,50.02,93,100,12.66,US,1731377623
380,lagunillas,10.1301,-71.2595,79.65,80,100,4.81,VE,1731377484
381,taulaga,-11.0553,-171.0883,83.8,68,70,12.26,AS,1731377626
382,kirakira,-10.4544,161.9205,83.73,78,100,11.41,SB,1731377627
383,ati,13.2154,18.3353,78.22,23,0,11.3,TD,1731377628
384,kodinsk,58.6881,99.1844,17.1,93,100,1.57,RU,1731377629
385,chui,-33.6971,-53.4616,52.59,85,76,8.48,UY,1731377417
386,mount gambier,-37.8333,140.7667,68.07,63,94,6.38,AU,1731377632
387,fortuna,40.5982,-124.1573,52.72,97,100,0.0,US,1731377477
388,keflavik,64.0049,-22.5624,50.43,100,100,35.68,IS,1731377634
389,lorengau,-2.0226,147.2712,85.06,73,36,7.74,PG,1731377635
390,taltal,-25.4,-70.4833,62.96,80,29,3.89,CL,1731377638
391,susuman,62.7833,148.1667,-3.44,92,100,2.98,RU,1731377639
392,olinda,-8.0089,-34.8553,80.33,74,40,6.91,BR,1731377640
393,puerto baquerizo moreno,-0.9,-89.6,69.53,73,58,9.8,EC,1731377641
394,muisne,0.6,-80.0333,73.54,79,46,5.53,EC,1731377643
395,mizdah,31.4451,12.9801,58.89,81,3,5.86,LY,1731377644
396,al hufuf,25.3646,49.5653,68.34,64,0,0.0,SA,1731377645
397,esmeralda,21.8525,-78.1169,76.42,96,53,5.08,CU,1731377646
398,gasa,31.5,34.4667,65.95,77,43,3.02,PS,1731377406
399,upper grand lagoon,30.1633,-85.7408,74.01,97,75,1.99,US,1731377649
400,pitea,65.3172,21.4794,33.13,88,88,3.44,SE,1731377481
401,touros,-5.1989,-35.4608,78.75,72,81,10.04,BR,1731377651
402,morondava,-20.2833,44.2833,79.16,63,10,4.09,MG,1731377652
403,prairie du chien,43.0517,-91.1412,41.02,60,0,0.0,US,1731377653
404,cooma,-36.2333,149.1333,77.68,23,100,5.19,AU,1731377655
405,cambria,35.5641,-121.0808,53.06,88,2,1.99,US,1731377656
406,sakaiminato,35.55,133.2333,62.87,57,0,5.12,JP,1731377657
407,paoua,7.2427,16.4406,68.85,54,10,2.35,CF,1731377658
408,oulmes,33.4258,-6.0014,54.41,59,77,1.61,MA,1731377659
409,buala,-8.145,159.5921,84.38,74,94,6.46,SB,1731377661
410,sagarejo,41.734,45.3315,41.38,81,100,2.21,GE,1731377662
411,sao paulo de olivenca,-3.3783,-68.8725,80.01,70,72,1.28,BR,1731377663
412,quelimane,-17.8786,36.8883,80.55,89,20,13.8,MZ,1731377664
413,mejit,10.2753,170.8646,83.16,76,97,13.76,MH,1731377665
414,mata-utu,-13.2816,-176.1745,82.2,73,16,4.29,WF,1731377407
415,lata,40.1629,-8.3327,49.68,73,3,6.11,PT,1731377668
416,new norfolk,-42.7826,147.0587,73.71,20,0,3.47,AU,1731377669
417,geraldton,-28.7667,114.6,71.26,50,0,16.96,AU,1731377670
418,ouarzazat,30.9189,-6.8934,61.54,43,82,4.38,MA,1731377671
419,puerto madero,14.7208,-92.4215,80.8,94,75,0.0,MX,1731377673
420,kuhdasht,33.535,47.6061,60.76,59,100,5.21,IR,1731377674
421,nova vicosa,-17.8919,-39.3719,74.08,79,0,3.98,BR,1731377675
422,qamdo,31.1667,97.2333,36.48,47,0,7.2,CN,1731377676
423,zhangye,38.9342,100.4517,44.96,43,100,4.36,CN,1731377677
424,gandorhun,7.5,-11.8333,75.04,93,7,2.19,SL,1731377679
425,sangmelima,2.9333,11.9833,68.5,95,4,2.3,CM,1731377680
426,cockburn town,21.4612,-71.1419,81.77,87,100,22.12,TC,1731377516
427,batangafo,7.3008,18.2833,72.1,60,3,1.23,CF,1731377682
428,richards bay,-28.783,32.0377,67.62,87,100,3.56,ZA,1731377683
429,gbarnga,6.9956,-9.4722,74.66,76,99,0.94,LR,1731377685
430,muramatsu,37.6833,139.1833,64.22,58,98,1.88,JP,1731377686
431,nikol'sk,53.7189,46.0712,28.81,95,21,4.34,RU,1731377688
432,el vigia,8.6219,-71.6506,75.79,88,79,2.62,VE,1731377689
433,chegdomyn,51.1167,133.0167,16.9,72,99,2.77,RU,1731377691
434,es castell,39.8795,4.2854,61.48,72,75,17.27,ES,1731377692
435,remire-montjoly,4.9167,-52.2667,75.24,94,75,5.75,GF,1731377560
436,borovskoy,53.8,64.15,8.83,97,49,6.62,KZ,1731377694
437,dudinka,69.4058,86.1778,-9.04,92,76,14.7,RU,1731377695
438,chaihe,44.7667,129.7,36.93,53,2,14.36,CN,1731377697
439,hami,42.8,93.45,44.94,51,50,3.31,CN,1731377698
440,brookings,44.3114,-96.7984,37.18,72,0,8.05,US,1731377699
441,sterling,39.0062,-77.4286,62.24,54,0,9.22,US,1731377600
442,khamis mushait,18.3064,42.7292,54.21,47,0,0.0,SA,1731377701
443,mabaruma,8.2,-59.7833,75.07,94,61,2.15,GY,1731377703
444,bathsheba,13.2167,-59.5167,83.01,69,20,13.8,BB,1731377704
445,vilyuysk,63.7553,121.6247,5.97,97,98,2.93,RU,1731377705
446,crane,31.3974,-102.3501,66.36,36,18,9.8,US,1731377706
447,kandyagash,49.4744,57.4233,10.76,88,5,3.4,KZ,1731377707
448,freetown,8.484,-13.2299,79.45,80,9,3.31,SL,1731377709
449,boda,4.3189,17.4695,69.93,91,83,1.03,CF,1731377710
450,bunia,1.5667,30.25,62.83,98,100,4.05,CD,1731377711
451,bamyan,34.75,67.25,27.3,27,0,3.42,AF,1731377712
452,grevena,40.0845,21.4274,45.28,86,99,2.46,GR,1731377715
453,faya-largeau,17.9257,19.1043,69.03,29,3,16.24,TD,1731377716
454,lensk,60.7253,114.9278,19.89,95,100,4.9,RU,1731377717
455,rakops,-21.0167,24.3333,69.94,75,96,7.83,BW,1731377719
456,san pedro pochutla,15.7333,-96.4667,80.71,88,100,2.77,MX,1731377721
457,campbellton,48.0075,-66.6727,37.44,98,100,2.15,CA,1731377722
458,harper,4.375,-7.7169,78.21,85,4,8.25,LR,1731377723
459,xiahu,26.6106,119.9483,70.74,80,58,10.42,CN,1731377724
460,tralee,52.2704,-9.7026,46.42,95,99,1.83,IE,1731377725
461,sao miguel do araguaia,-13.275,-50.1628,71.42,97,100,7.85,BR,1731377727
462,taibet,33.0829,6.3998,63.28,58,0,8.12,DZ,1731377728
463,jaguaribe,-5.8906,-38.6219,79.11,62,100,9.98,BR,1731377729
464,acarau,-2.8856,-40.12,78.28,76,100,10.45,BR,1731377730
465,irituia,-1.7711,-47.4381,77.4,77,100,1.59,BR,1731377731
466,apolinario saravia,-24.4328,-63.9954,60.1,70,100,20.98,AR,1731377734
467,illizi,26.4833,8.4667,63.7,43,56,2.26,DZ,1731377735
468,taghazout,30.5426,-9.7112,65.32,83,0,7.7,MA,1731377736
469,kristiansund,63.1115,7.732,45.25,81,100,5.75,NO,1731377738
470,maumere,-8.6199,122.2111,88.0,55,2,0.25,ID,1731377740
471,young,-32.6833,-57.6333,52.0,33,0,6.73,UY,1731377741
472,dzhalagash,45.0833,64.6667,37.62,73,100,11.23,KZ,1731377743
473,basna,21.2833,82.8167,69.42,65,0,4.34,IN,1731377744
474,hilo,19.7297,-155.09,76.08,92,75,6.91,US,1731377081
475,auki,-8.7676,160.7034,83.95,76,87,1.59,SB,1731377746
476,kruisfontein,-34.0033,24.7314,55.11,91,0,3.04,ZA,1731377748
477,pikalevo,59.5183,34.1664,28.98,86,100,4.09,RU,1731377749
478,viedma,-40.8135,-62.9967,57.81,28,100,7.87,AR,1731377722
479,glendive,47.1053,-104.7125,38.82,87,20,10.36,US,1731377751
480,wynyard,-41.0,145.7167,64.18,63,8,10.0,AU,1731377752
481,durres,41.3231,19.4414,37.58,60,0,9.46,AL,1731377754
482,bella union,-30.2752,-57.6007,56.59,93,15,7.54,UY,1731377468
483,colonia,50.9333,6.95,48.94,93,75,3.44,DE,1731377651
484,marau,-28.4492,-52.2,61.48,94,98,9.06,BR,1731377757
485,itoman,26.1247,127.6694,79.18,89,75,20.71,JP,1731377758
486,haiku-pauwela,20.9219,-156.3051,78.82,72,40,20.71,US,1731377760
487,twon-brass,4.3151,6.2418,79.86,81,54,9.55,NG,1731377762
488,amursk,50.2261,136.8994,27.55,64,100,7.43,RU,1731377763
489,tyup,42.7276,78.3648,33.22,64,93,3.89,KG,1731377765
490,zahedan,29.4963,60.8629,53.98,46,2,1.72,IR,1731377766
491,nevel',56.0209,29.9284,33.19,90,99,4.14,RU,1731377645
492,yurimaguas,-5.9,-76.0833,79.9,63,9,1.52,PE,1731377768
493,khanty-mansiysk,61.0042,69.0019,6.91,85,0,8.95,RU,1731377769
494,ojinaga,29.5667,-104.4167,71.56,24,0,0.0,MX,1731377771
495,bayanhongor,46.7167,100.1167,7.29,84,3,2.55,MN,1731377772
496,hope mills,34.9704,-78.9453,64.51,93,0,6.91,US,1731377714
497,fortaleza,-3.7227,-38.5247,80.22,83,40,8.05,BR,1731377646
498,dolinsk,47.35,142.8,34.63,85,100,3.27,RU,1731377775
499,yarmouth,41.7057,-70.2286,58.12,89,100,5.99,US,1731377777
500,shakawe,-18.3667,21.85,67.44,83,100,3.47,BW,1731377778
501,calvi,42.5,8.8333,39.83,87,0,5.75,FR,1731377779
502,hailey,43.5196,-114.3153,46.8,59,99,15.01,US,1731377636
503,yanjiang,30.1211,104.6481,62.08,86,99,1.05,CN,1731377782
504,turpan,42.9333,89.1667,48.69,53,2,2.26,CN,1731377783
505,reggane,26.7158,0.1714,68.86,34,6,10.45,DZ,1731377784
506,la passe,45.5549,-0.8967,48.31,89,6,15.28,FR,1731377785
507,fuman,37.2273,49.3142,57.29,91,99,2.39,IR,1731377786
508,cobija,-11.0267,-68.7692,77.61,78,48,2.75,BO,1731377788
509,kirguli,40.4358,71.7672,39.74,87,100,4.61,UZ,1731377789
510,galle,6.0367,80.217,82.92,83,68,1.01,LK,1731377790
511,pierre,44.3683,-100.351,38.32,75,0,12.66,US,1731377767
512,dalandzadgad,43.5708,104.425,41.49,42,1,7.29,MN,1731377793
513,kailua-kona,19.6406,-155.9956,83.28,71,40,9.22,US,1731377794
514,cidade velha,14.9167,-23.6167,77.47,69,0,11.5,CV,1731377795
515,mezhdurechensk,53.6942,88.0603,19.85,90,100,9.95,RU,1731377651
516,bokhan,53.153,103.7714,30.0,57,96,2.39,RU,1731377797
517,navia,43.5354,-6.7194,51.67,97,55,4.59,ES,1731377799
518,guilin,25.2819,110.2864,75.34,48,10,5.77,CN,1731377511
519,kibale,0.8,31.0667,60.15,100,100,0.25,UG,1731377801
520,batticaloa,7.7102,81.6924,79.65,83,9,6.31,LK,1731377802
521,merizo village,13.2658,144.6691,88.36,90,85,3.27,GU,1731377803
522,sovetskaya gavan',48.9723,140.2878,30.69,65,100,5.86,RU,1731377805
523,garbahaarrey,3.3289,42.2209,79.72,72,91,10.09,SO,1731377806
524,luena,-11.7833,19.9167,60.66,97,56,1.59,AO,1731377807
525,al kharj,24.155,47.3346,68.58,43,3,2.17,SA,1731377808
526,vilhena,-12.7406,-60.1458,70.81,84,16,2.77,BR,1731377809
527,alindao,5.0267,21.2088,69.55,96,6,1.21,CF,1731377811
528,yambio,4.5721,28.3955,66.56,91,86,1.59,SS,1731377812
529,tambopata,-12.7333,-69.1833,77.0,84,94,2.08,PE,1731377813
530,santa terezinha,-29.9002,-50.0904,64.65,91,100,10.16,BR,1731377814
531,markt indersdorf,48.3606,11.3779,39.24,89,100,3.02,DE,1731377815
532,huayucachi,-12.1333,-75.2333,51.31,76,100,4.03,PE,1731377817
533,isangel,-19.55,169.2667,82.51,74,75,9.22,VU,1731377818
534,marsa alam,25.0757,34.8918,70.32,57,0,11.77,EG,1731377819
535,bontang,0.1333,117.5,84.6,70,100,3.94,ID,1731377820
536,mili,6.0815,171.735,82.47,77,100,8.86,MH,1731377822
537,igarka,67.4667,86.5833,-9.4,94,100,9.37,RU,1731377823
538,palmer,42.1584,-72.3287,56.75,62,100,0.0,US,1731377590
539,thief river falls,48.1191,-96.1812,31.93,80,0,8.05,US,1731377825
540,ardestan,33.3761,52.3694,54.86,45,52,2.24,IR,1731377826
541,lubang,13.8584,120.124,83.23,79,70,11.03,PH,1731377828
542,ellensburg,46.9965,-120.5479,44.64,81,0,8.05,US,1731377829
543,alice springs,-23.7,133.8833,91.47,29,71,5.17,AU,1731377831
544,manado,1.487,124.8455,99.37,49,40,2.3,ID,1731377833
545,aliabad,41.4822,46.6353,46.02,87,75,4.61,AZ,1731377834
546,port lincoln,-34.7333,135.8667,69.15,63,2,12.88,AU,1731377835
547,bastia,42.6667,9.3333,56.3,83,95,4.32,FR,1731377836
548,vrangel',42.7297,133.0839,48.85,53,0,16.22,RU,1731377838
549,koraput,18.8167,82.7167,68.95,76,6,3.78,IN,1731377839
550,galliano,29.4422,-90.2992,77.0,78,75,6.91,US,1731377840
551,lu-uk,5.9684,121.3122,85.68,65,6,0.78,PH,1731377841
552,iisalmi,63.5592,27.1907,33.84,98,100,3.38,FI,1731377842
553,dwarka,22.2394,68.9678,80.13,60,87,7.09,IN,1731377844
554,puerto gaitan,4.3133,-72.0816,81.43,69,42,4.34,CO,1731377845
555,northam,51.0333,-4.2167,49.6,82,100,4.65,GB,1731377846
556,salalah,17.0151,54.0924,71.69,56,0,5.75,OM,1731377847
557,port isabel,26.0734,-97.2086,75.24,88,20,10.36,US,1731377848
558,antofagasta,-23.65,-70.4,61.88,82,31,3.83,CL,1731377716
559,chulakkurgan,43.765,69.1814,37.81,97,100,4.56,KZ,1731377851
560,magugu,-4.0167,35.7667,70.18,71,97,2.35,TZ,1731377852
561,oyem,1.5995,11.5793,68.05,97,9,1.88,GA,1731377853
562,axum,14.1245,38.7244,57.25,61,75,11.81,ET,1731377854
563,crowley,30.2141,-92.3746,69.04,72,47,7.61,US,1731377858
564,bairnsdale,-37.8333,147.6167,71.06,66,0,5.01,AU,1731377859
565,stephenville,32.2207,-98.2023,62.73,51,0,4.61,US,1731377861
566,linkoping,58.4109,15.6216,41.38,89,100,5.75,SE,1731377602
567,sur,22.5667,59.5289,78.66,49,65,1.97,OM,1731377863
568,tilcara,-23.5776,-65.3509,44.62,100,100,8.48,AR,1731377735
569,zouerate,22.7187,-12.4521,71.26,13,26,2.19,MR,1731377865
570,mezhdurechenskiy,59.6,65.9333,14.11,93,99,6.98,RU,1731377867
571,kijang,35.2442,129.2139,61.77,59,0,3.22,KR,1731377868
572,hato mayor del rey,18.7628,-69.2568,73.31,95,100,2.95,DO,1731377869
573,cinarli,41.4723,46.9156,39.36,64,77,4.18,AZ,1731377870
574,krasnokamensk,50.0979,118.0369,25.86,57,6,3.98,RU,1731377871
575,benguela,-12.5763,13.4055,75.79,80,100,5.66,AO,1731377873
576,sao luiz gonzaga,-28.4083,-54.9608,60.12,76,91,11.21,BR,1731377646
577,egilsstadir,65.2653,-14.3948,47.86,97,100,16.87,IS,1731377747
578,lobito,-12.3481,13.5456,75.65,83,100,5.97,AO,1731377876
